Name;Owner;River;Lat;Lon;Capacity_MW;Annual_GWh;Max_MWh_h;Municipality
Ĺsele;Vattenfall;Ĺngermanälven;64.1021;17.2888;26;116;26;Ĺsele kommun
Edensforsen;Uniper;Ĺngermanälven;63.6862;17.0111;80;357;80;Sollefteĺ kommun
Forsmo;Vattenfall;Ĺngermanälven;63.3645;16.8575;152;730;152;Sollefteĺ kommun
Gammelänge;Fortum;Indalsälven;63.1419;16.1611;78;496;78;Ragunda kommun
Hällby;Uniper;Ĺngermanälven;63.8829;17.1901;84;339;84;Sollefteĺ kommun
Hammarforsen;Statkraft;Indalsälven;63.0261;16.4832;79;553;79;Ragunda kommun
Hjälta;Uniper;Faxälven;63.1837;17.0968;178;1005;178;Sollefteĺ kommun
Högforsen;Högforsen Kraftverk AB;Gillerĺn;63.2471;16.5982;0,32;1,7;0,32;Ragunda kommun
Hölleforsen;Vattenfall;Indalsälven;62.9508;16.6678;149;734;149;Ragunda kommun
Kilforsen;Vattenfall;Ĺngermanälven;63.5385;16.7645;272;1866;272;Sollefteĺ kommun
Krĺngede;Fortum;Indalsälven;63.1489;16.0712;248;1622;248;Ragunda kommun
Lĺngbjörn;Vattenfall;Ĺngermanälven;63.6339;16.2917;99;418;99;Sollefteĺ kommun
Lasele;Vattenfall;Ĺngermanälven;63.4831;16.5936;155;671;155;Sollefteĺ kommun
Midskog;Vattenfall;Indalsälven;63.2598;16.0585;158;734;158;Ragunda kommun
Moforsen;Uniper;Ĺngermanälven;63.3683;16.9883;160;659;160;Sollefteĺ kommun
Nämforsen;Vattenfall;Ĺngermanälven;63.4469;16.8915;105;755;105;Sollefteĺ kommun
Näverede;Vattenfall;Indalsälven;63.2165;16.1050;76;349;76;Ragunda kommun
Ramsele;Uniper;Faxälven;63.5310;16.4749;171;899;171;Sollefteĺ kommun
Sollefteĺ;Sollefteĺforsen;Ĺngermanälven;63.1670;17.2688;62;298;62;Sollefteĺ kommun
Stadsforsen;Vattenfall;Indalsälven;63.1225;16.3172;148;841;148;Ragunda kommun
Stalon;Vattenfall;Vojmĺn;64.1525;16.8316;130;548;130;Vilhelmina kommun
Stenkullafors;Vattenfall;Ĺngermanälven;63.2693;17.1026;57;234;57;Ĺsele kommun
Storfinnforsen;Uniper;Faxälven;63.5985;16.1218;112;543;112;Sollefteĺ kommun
Stugun;Vattenfall;Indalsälven;63.1718;15.9995;46;181;46;Ragunda kommun
Svarthĺlsforsen;Fortum;Indalsälven;63.0944;16.3618;86;444;86;Ragunda kommun
;;;;;;;;
;;;;;;;;
;;;;;;;;
 ;;;;;;;;
